{
     {
      "commune": "PARIS-18EME",
      "lat": "48.8946326891969",
      "lignes": {
        "metro": [
          "4"
        ]
      },
      "lng": "2.34709106533484",
      "nom": "Simplon",
      "num": "1621",
      "type": "metro",
      "isHub": false,
      "routes": [
        [
          16,
          1
        ],
        [
          17,
          25
        ]
      ]
    },
     {
      "commune": "PARIS-07EME",
      "lat": "48.8585512442859",
      "lignes": {
        "metro": [
          "12"
        ]
      },
      "lng": "2.32268062216292",
      "nom": "Solférino",
      "num": "1622",
      "type": "metro",
      "isHub": false,
      "routes": [
        [
          34,
          15
        ],
        [
          35,
          13
        ]
      ]
    },
     {
      "commune": "PARIS-19EME",
      "lat": "48.88430478953",
      "lignes": {
        "metro": [
          "2",
          "5",
          "7"
        ]
      },
      "lng": "2.3670850145355",
      "nom": "Stalingrad",
      "num": "1627",
      "type": "metro",
      "isHub": true,
      "routes": [
        [
          10,
          14
        ],
        [
          11,
          10
        ],
        [
          18,
          8
        ],
        [
          19,
          13
        ],
        [
          22,
          7
        ],
        [
          23,
          7
        ],
        [
          24,
          25
        ],
        [
          25,
          26
        ]
      ]
    },
     {
      "commune": "PARIS-02EME",
      "lat": "48.8691997057755",
      "lignes": {
        "metro": [
          "4",
          "8",
          "9"
        ]
      },
      "lng": "2.35409710573389",
      "nom": "Strasbourg-Saint-Denis",
      "num": "1628",
      "type": "metro",
      "isHub": true,
      "routes": [
        [
          16,
          8
        ],
        [
          17,
          18
        ],
        [
          26,
          15
        ],
        [
          27,
          22
        ],
        [
          28,
          23
        ],
        [
          29,
          13
        ]
      ]
    },
     {
      "commune": "PARIS-04EME",
      "lat": "48.8510338403896",
      "lignes": {
        "metro": [
          "7"
        ]
      },
      "lng": "2.36186696356924",
      "nom": "Sully-Morland",
      "num": "1630",
      "type": "metro",
      "isHub": false,
      "routes": [
        [
          22,
          21
        ],
        [
          23,
          21
        ],
        [
          24,
          11
        ],
        [
          25,
          12
        ]
      ]
    },
     {
      "commune": "PARIS-15EME",
      "lat": "48.8467524550776",
      "lignes": {
        "metro": [
          "10"
        ]
      },
      "lng": "2.30782041849586",
      "nom": "Ségur",
      "num": "1631",
      "type": "metro",
      "isHub": false,
      "routes": [
        [
          30,
          9
        ],
        [
          31,
          10
        ]
      ]
    },
     {
      "commune": "PARIS-07EME",
      "lat": "48.8512043552606",
      "lignes": {
        "metro": [
          "10",
          "12"
        ]
      },
      "lng": "2.32587286292213",
      "nom": "Sèvres-Babylone",
      "num": "1632",
      "type": "metro",
      "isHub": true,
      "routes": [
        [
          30,
          12
        ],
        [
          31,
          7
        ],
        [
          34,
          17
        ],
        [
          35,
          11
        ]
      ]
    },
     {
      "commune": "PARIS-15EME",
      "lat": "48.8451307700065",
      "lignes": {
        "metro": [
          "6"
        ]
      },
      "lng": "2.31018390371145",
      "nom": "Sèvres-Lecourbe",
      "num": "1633",
      "type": "metro",
      "isHub": false,
      "routes": [
        [
          20,
          9
        ],
        [
          21,
          18
        ]
      ]
    },
     {
      "commune": "PARIS-03EME",
      "lat": "48.8663687823143",
      "lignes": {
        "metro": [
          "3"
        ]
      },
      "lng": "2.36108072227889",
      "nom": "Temple",
      "num": "1634",
      "type": "metro",
      "isHub": false,
      "routes": [
        [
          12,
          17
        ],
        [
          13,
          7
        ]
      ]
    },
     {
      "commune": "PARIS-17EME",
      "lat": "48.8780661989513",
      "lignes": {
        "metro": [
          "2"
        ]
      },
      "lng": "2.29803071264819",
      "nom": "Ternes",
      "num": "1635",
      "type": "metro",
      "isHub": false,
      "routes": [
        [
          10,
          3
        ],
        [
          11,
          21
        ]
      ]
    },
     {
      "commune": "PARIS-13EME",
      "lat": "48.8265068988465",
      "lignes": {
        "metro": [
          "7"
        ]
      },
      "lng": "2.35724192740466",
      "nom": "Tolbiac",
      "num": "1636",
      "type": "metro",
      "isHub": false,
      "routes": [
        [
          22,
          27
        ],
        [
          23,
          27
        ],
        [
          24,
          5
        ],
        [
          25,
          6
        ]
      ]
    },
     {
      "commune": "PARIS-09EME",
      "lat": "48.87650879316",
      "lignes": {
        "metro": [
          "12"
        ]
      },
      "lng": "2.33305807671909",
      "nom": "Trinité-d'Estienne d'Orves",
      "num": "1638",
      "type": "metro",
      "isHub": false,
      "routes": [
        [
          34,
          10
        ],
        [
          35,
          18
        ]
      ]
    },
    {
      "commune": "PARIS-16EME",
      "lat": "48.8629708358403",
      "lignes": {
        "metro": [
          "6",
          "9"
        ]
      },
      "lng": "2.2870198439694",
      "nom": "Trocadéro",
      "num": "1639",
      "type": "metro",
      "isHub": true,
      "routes": [
        [
          20,
          3
        ],
        [
          21,
          24
        ],
        [
          28,
          11
        ],
        [
          29,
          25
        ]
      ]
    },
     {
      "commune": "PARIS-01ER",
      "lat": "48.8644970966975",
      "lignes": {
        "metro": [
          "1"
        ]
      },
      "lng": "2.33031418026416",
      "nom": "Tuileries",
      "num": "1640",
      "type": "metro",
      "isHub": false,
      "routes": [
        [
          8,
          13
        ],
        [
          9,
          11
        ]
      ]
    },
     {
      "commune": "PARIS-07EME",
      "lat": "48.848871662506",
      "lignes": {
        "metro": [
          "10"
        ]
      },
      "lng": "2.32193434751113",
      "nom": "Vaneau",
      "num": "1643",
      "type": "metro",
      "isHub": false,
      "routes": [
        [
          30,
          11
        ],
        [
          31,
          8
        ]
      ]
    },
     {
      "commune": "PARIS-07EME",
      "lat": "48.8575166012889",
      "lignes": {
        "metro": [
          "13"
        ]
      },
      "lng": "2.31553023354222",
      "nom": "Varenne",
      "num": "1644",
      "type": "metro",
      "isHub": false,
      "routes": [
        [
          36,
          13
        ],
        [
          37,
          15
        ],
        [
          38,
          10
        ],
        [
          39,
          10
        ]
      ]
    },
     {
      "commune": "PARIS-15EME",
      "lat": "48.839568032804",
      "lignes": {
        "metro": [
          "12"
        ]
      },
      "lng": "2.30098263992519",
      "nom": "Vaugirard (Adolphe Chérioux)",
      "num": "1645",
      "type": "metro",
      "isHub": false,
      "routes": [
        [
          34,
          24
        ],
        [
          35,
          4
        ]
      ]
    },
     {
      "commune": "PARIS-06EME",
      "lat": "48.8420036541946",
      "lignes": {
        "metro": [
          "4"
        ]
      },
      "lng": "2.32900321886739",
      "nom": "Vavin",
      "num": "1646",
      "type": "metro",
      "isHub": false,
      "routes": [
        [
          16,
          20
        ],
        [
          17,
          6
        ]
      ]
    },
     {
      "commune": "PARIS-16EME",
      "lat": "48.8696716618644",
      "lignes": {
        "metro": [
          "2"
        ]
      },
      "lng": "2.28526726839526",
      "nom": "Victor Hugo",
      "num": "1648",
      "type": "metro",
      "isHub": false,
      "routes": [
        [
          10,
          1
        ],
        [
          11,
          23
        ]
      ]
    },
     {
      "commune": "VILLEJUIF",
      "lat": "48.7870020157205",
      "lignes": {
        "metro": [
          "7"
        ]
      },
      "lng": "2.36697471484243",
      "nom": "Villejuif-Louis Aragon",
      "num": "1649",
      "type": "metro",
      "isHub": false,
      "routes": [
        [
          22,
          32
        ],
        [
          24,
          0
        ]
      ]
    },
     {
      "commune": "VILLEJUIF",
      "lat": "48.8041740664156",
      "lignes": {
        "metro": [
          "7"
        ]
      },
      "lng": "2.36394352657996",
      "nom": "Villejuif-Léo Lagrange",
      "num": "1650",
      "type": "metro",
      "isHub": false,
      "routes": [
        [
          22,
          30
        ],
        [
          24,
          2
        ]
      ]
    },
     {
      "commune": "VILLEJUIF",
      "lat": "48.7959447270881",
      "lignes": {
        "metro": [
          "7"
        ]
      },
      "lng": "2.3679661373898",
      "nom": "Villejuif-P. Vaillant-Couturier (Htal Brousse)",
      "num": "1651",
      "type": "metro",
      "isHub": false,
      "routes": [
        [
          22,
          31
        ],
        [
          24,
          1
        ]
      ]
    },
     {
      "commune": "PARIS-17EME",
      "lat": "48.8810543983372",
      "lignes": {
        "metro": [
          "2",
          "3"
        ]
      },
      "lng": "2.31527055095629",
      "nom": "Villiers",
      "num": "1654",
      "type": "metro",
      "isHub": true,
      "routes": [
        [
          10,
          6
        ],
        [
          11,
          18
        ],
        [
          12,
          7
        ],
        [
          13,
          17
        ]
      ]
    },
     {
      "commune": "PARIS-15EME",
      "lat": "48.8416970273909",
      "lignes": {
        "metro": [
          "12"
        ]
      },
      "lng": "2.30804114557479",
      "nom": "Volontaires",
      "num": "1656",
      "type": "metro",
      "isHub": false,
      "routes": [
        [
          34,
          23
        ],
        [
          35,
          5
        ]
      ]
    },
     {
      "commune": "PARIS-11EME",
      "lat": "48.8578758428685",
      "lignes": {
        "metro": [
          "9"
        ]
      },
      "lng": "2.37988391957515",
      "nom": "Voltaire (Léon Blum)",
      "num": "1657",
      "type": "metro",
      "isHub": false,
      "routes": [
        [
          28,
          27
        ],
        [
          29,
          9
        ]
      ]
    },
     {
      "commune": "PARIS-17EME",
      "lat": "48.8838739610152",
      "lignes": {
        "metro": [
          "3"
        ]
      },
      "lng": "2.30465144209881",
      "nom": "Wagram",
      "num": "1658",
      "type": "metro",
      "isHub": false,
      "routes": [
        [
          12,
          5
        ],
        [
          13,
          19
        ]
      ]
    },
    {
      "commune": "PARIS-16EME",
      "lat": "48.8553920307943",
      "lignes": {
        "metro": [
          "9"
        ]
      },
      "lng": "2.26997975035107",
      "nom": "Ranelagh",
      "num": "1659",
      "type": "metro",
      "isHub": false,
      "routes": [
        [
          28,
          8
        ],
        [
          29,
          28
        ]
      ]
    },
     {
      "commune": "PARIS-14EME",
      "lat": "48.8389637143162",
      "lignes": {
        "metro": [
          "4",
          "6"
        ]
      },
      "lng": "2.33058309684112",
      "nom": "Raspail",
      "num": "1660",
      "type": "metro",
      "isHub": true,
      "routes": [
        [
          16,
          21
        ],
        [
          17,
          5
        ],
        [
          20,
          13
        ],
        [
          21,
          14
        ]
      ]
    },
    {
      "commune": "PARIS-06EME",
      "lat": "48.8480544328681",
      "lignes": {
        "metro": [
          "12"
        ]
      },
      "lng": "2.32808305123987",
      "nom": "Rennes",
      "num": "1661",
      "type": "metro",
      "isHub": false,
      "routes": [
        [
          34,
          18
        ],
        [
          35,
          10
        ]
      ]
    },
     {
      "commune": "PARIS-12EME",
      "lat": "48.8472381327386",
      "lignes": {
        "metro": [
          "1",
          "8"
        ]
      },
      "lng": "2.38611818658013",
      "nom": "Reuilly-Diderot",
      "num": "1662",
      "type": "metro",
      "isHub": true,
      "routes": [
        [
          8,
          5
        ],
        [
          9,
          19
        ],
        [
          26,
          23
        ],
        [
          27,
          14
        ]
      ]
    },
     {
      "commune": "PARIS-11EME",
      "lat": "48.8608927535125",
      "lignes": {
        "metro": [
          "5"
        ]
      },
      "lng": "2.3720977804711",
      "nom": "Richard-Lenoir",
      "num": "1664",
      "type": "metro",
      "isHub": false,
      "routes": [
        [
          18,
          14
        ],
        [
          19,
          7
        ]
      ]
    },
     {
      "commune": "PARIS-09EME",
      "lat": "48.8720139167525",
      "lignes": {
        "metro": [
          "8",
          "9"
        ]
      },
      "lng": "2.33908809938486",
      "nom": "Richelieu-Drouot",
      "num": "1665",
      "type": "metro",
      "isHub": true,
      "routes": [
        [
          26,
          12
        ],
        [
          27,
          25
        ],
        [
          28,
          20
        ],
        [
          29,
          16
        ]
      ]
    },
     {
      "commune": "PARIS-19EME",
      "lat": "48.8881235581407",
      "lignes": {
        "metro": [
          "7"
        ]
      },
      "lng": "2.37448742568144",
      "nom": "Riquet",
      "num": "1666",
      "type": "metro",
      "isHub": false,
      "routes": [
        [
          22,
          6
        ],
        [
          23,
          6
        ],
        [
          24,
          26
        ],
        [
          25,
          27
        ]
      ]
    },
     {
      "commune": "MONTREUIL",
      "lat": "48.85556400483",
      "lignes": {
        "metro": [
          "9"
        ]
      },
      "lng": "2.42355673885079",
      "nom": "Robespierre",
      "num": "1667",
      "type": "metro",
      "isHub": false,
      "routes": [
        [
          28,
          34
        ],
        [
          29,
          2
        ]
      ]
    },
     {
      "commune": "PARIS-17EME",
      "lat": "48.8825292240735",
      "lignes": {
        "metro": [
          "2"
        ]
      },
      "lng": "2.32098414419979",
      "nom": "Rome",
      "num": "1670",
      "type": "metro",
      "isHub": false,
      "routes": [
        [
          10,
          7
        ],
        [
          11,
          17
        ]
      ]
    },
     {
      "commune": "PARIS-09EME",
      "lat": "48.8714189081641",
      "lignes": {
        "metro": [
          "8",
          "9"
        ]
      },
      "lng": "2.34319701067138",
      "nom": "Grands Boulevards",
      "num": "1671",
      "type": "metro",
      "isHub": false,
      "routes": [
        [
          26,
          13
        ],
        [
          27,
          24
        ],
        [
          28,
          21
        ],
        [
          29,
          15
        ]
      ]
    },
     {
      "commune": "PARIS-16EME",
      "lat": "48.8641004131629",
      "lignes": {
        "metro": [
          "9"
        ]
      },
      "lng": "2.27762632988678",
      "nom": "Rue de la Pompe (Av. Georges Mandel)",
      "num": "1672",
      "type": "metro",
      "isHub": false,
      "routes": [
        [
          28,
          10
        ],
        [
          29,
          26
        ]
      ]
    },
     {
      "commune": "PARIS-11EME",
      "lat": "48.8521417733756",
      "lignes": {
        "metro": [
          "9"
        ]
      },
      "lng": "2.38914280457034",
      "nom": "Rue des Boulets",
      "num": "1673",
      "type": "metro",
      "isHub": false,
      "routes": [
        [
          28,
          29
        ],
        [
          29,
          7
        ]
      ]
    },
     {
      "commune": "PARIS-07EME",
      "lat": "48.8557564721823",
      "lignes": {
        "metro": [
          "12"
        ]
      },
      "lng": "2.32556882179391",
      "nom": "Rue du Bac",
      "num": "1674",
      "type": "metro",
      "isHub": false,
      "routes": [
        [
          34,
          16
        ],
        [
          35,
          12
        ]
      ]
    },
     {
      "commune": "PARIS-02EME",
      "lat": "48.8663118301881",
      "lignes": {
        "metro": [
          "3",
          "4"
        ]
      },
      "lng": "2.35203525525425",
      "nom": "Réaumur-Sébastopol",
      "num": "1676",
      "type": "metro",
      "isHub": true,
      "routes": [
        [
          12,
          15
        ],
        [
          13,
          9
        ],
        [
          16,
          9
        ],
        [
          17,
          17
        ]
      ]
    },
     {
      "commune": "PARIS-11EME",
      "lat": "48.8674860390566",
      "lignes": {
        "metro": [
          "11",
          "3",
          "5",
          "8",
          "9"
        ]
      },
      "lng": "2.36366959820676",
      "nom": "République",
      "num": "1679",
      "type": "metro",
      "isHub": true,
      "routes": [
        [
          12,
          18
        ],
        [
          13,
          6
        ],
        [
          18,
          12
        ],
        [
          19,
          9
        ],
        [
          26,
          16
        ],
        [
          27,
          21
        ],
        [
          28,
          24
        ],
        [
          29,
          12
        ],
        [
          32,
          8
        ],
        [
          33,
          4
        ]
      ]
    },
     {
      "commune": "PARIS-11EME",
      "lat": "48.8612121032505",
      "lignes": {
        "metro": [
          "9"
        ]
      },
      "lng": "2.37409760383489",
      "nom": "Saint-Ambroise",
      "num": "1680",
      "type": "metro",
      "isHub": false,
      "routes": [
        [
          28,
          26
        ],
        [
          29,
          10
        ]
      ]
    },
     {
      "commune": "PARIS-08EME",
      "lat": "48.8746742716311",
      "lignes": {
        "metro": [
          "9"
        ]
      },
      "lng": "2.32043139650991",
      "nom": "Saint-Augustin",
      "num": "1681",
      "type": "metro",
      "isHub": false,
      "routes": [
        [
          28,
          17
        ],
        [
          29,
          19
        ]
      ]
    },
     {
      "commune": "PARIS-20EME",
      "lat": "48.871951099492",
      "lignes": {
        "metro": [
          "3B"
        ]
      },
      "lng": "2.40485763553065",
      "nom": "Saint-Fargeau",
      "num": "1684",
      "type": "metro",
      "isHub": false,
      "routes": [
        [
          14,
          1
        ],
        [
          15,
          2
        ]
      ]
    },
     {
      "commune": "PARIS-07EME",
      "lat": "48.8518632147979",
      "lignes": {
        "metro": [
          "13"
        ]
      },
      "lng": "2.31403452688812",
      "nom": "Saint-Francois-Xavier",
      "num": "1685",
      "type": "metro",
      "isHub": false,
      "routes": [
        [
          36,
          14
        ],
        [
          37,
          16
        ],
        [
          38,
          9
        ],
        [
          39,
          9
        ]
      ]
    },
    {
      "commune": "PARIS-09EME",
      "lat": "48.8785085363002",
      "lignes": {
        "metro": [
          "12"
        ]
      },
      "lng": "2.33758851215148",
      "nom": "Saint-Georges",
      "num": "1686",
      "type": "metro",
      "isHub": false,
      "routes": [
        [
          34,
          8
        ],
        [
          35,
          20
        ]
      ]
    },
     {
      "commune": "PARIS-06EME",
      "lat": "48.8536134867907",
      "lignes": {
        "metro": [
          "4"
        ]
      },
      "lng": "2.33372046538119",
      "nom": "Saint-Germain des Prés",
      "num": "1687",
      "type": "metro",
      "isHub": false,
      "routes": [
        [
          16,
          16
        ],
        [
          17,
          10
        ]
      ]
    },
     {
      "commune": "PARIS-14EME",
      "lat": "48.8332522883745",
      "lignes": {
        "metro": [
          "6"
        ]
      },
      "lng": "2.33622001540028",
      "nom": "Saint-Jacques",
      "num": "1688",
      "type": "metro",
      "isHub": false,
      "routes": [
        [
          20,
          15
        ],
        [
          21,
          12
        ]
      ]
    },
     {
      "commune": "PARIS-08EME",
      "lat": "48.8755778691635",
      "lignes": {
        "metro": [
          "12",
          "13",
          "14",
          "3"
        ]
      },
      "lng": "2.326185658552",
      "nom": "Saint-Lazare",
      "num": "1689",
      "type": "metro",
      "isHub": true,
      "routes": [
        [
          12,
          9
        ],
        [
          13,
          15
        ],
        [
          34,
          11
        ],
        [
          35,
          17
        ],
        [
          36,
          9
        ],
        [
          37,
          11
        ],
        [
          38,
          14
        ],
        [
          39,
          14
        ],
        [
          40,
          8
        ],
        [
          41,
          0
        ]
      ]
    },
     {
      "commune": "SAINT-MANDE",
      "lat": "48.8462977572576",
      "lignes": {
        "metro": [
          "1"
        ]
      },
      "lng": "2.41867310093048",
      "nom": "Saint-Mandé",
      "num": "1690",
      "type": "metro",
      "isHub": false,
      "routes": [
        [
          8,
          2
        ],
        [
          9,
          22
        ]
      ]
    },
     {
      "commune": "PARIS-13EME",
      "lat": "48.8395141857768",
      "lignes": {
        "metro": [
          "5"
        ]
      },
      "lng": "2.36140877914038",
      "nom": "Saint-Marcel",
      "num": "1691",
      "type": "metro",
      "isHub": false,
      "routes": [
        [
          18,
          19
        ],
        [
          19,
          2
        ]
      ]
    },
     {
      "commune": "PARIS-11EME",
      "lat": "48.8639878082439",
      "lignes": {
        "metro": [
          "3"
        ]
      },
      "lng": "2.38007329534159",
      "nom": "Rue Saint-Maur",
      "num": "1693",
      "type": "metro",
      "isHub": false,
      "routes": [
        [
          12,
          20
        ],
        [
          13,
          4
        ]
      ]
    },
     {
      "commune": "PARIS-05EME",
      "lat": "48.8532875817267",
      "lignes": {
        "metro": [
          "4"
        ]
      },
      "lng": "2.34346845196892",
      "nom": "Saint-Michel",
      "num": "1694",
      "type": "metro",
      "isHub": true,
      "routes": [
        [
          16,
          14
        ],
        [
          17,
          12
        ],
        [
          72,
          0
        ],
        [
          73,
          2
        ]
      ]
    },
     {
      "commune": "PARIS-04EME",
      "lat": "48.8551436006388",
      "lignes": {
        "metro": [
          "1"
        ]
      },
      "lng": "2.36065335403361",
      "nom": "Saint-Paul (Le Marais)",
      "num": "1695",
      "type": "metro",
      "isHub": false,
      "routes": [
        [
          8,
          8
        ],
        [
          9,
          16
        ]
      ]
    },
     {
      "commune": "PARIS-08EME",
      "lat": "48.8721798206485",
      "lignes": {
        "metro": [
          "9"
        ]
      },
      "lng": "2.30982009380661",
      "nom": "Saint-Philippe du Roule",
      "num": "1696",
      "type": "metro",
      "isHub": false,
      "routes": [
        [
          28,
          15
        ],
        [
          29,
          21
        ]
      ]
    },
     {
      "commune": "PARIS-06EME",
      "lat": "48.8465803886283",
      "lignes": {
        "metro": [
          "4"
        ]
      },
      "lng": "2.32693263560201",
      "nom": "Saint-Placide",
      "num": "1697",
      "type": "metro",
      "isHub": false,
      "routes": [
        [
          16,
          18
        ],
        [
          17,
          8
        ]
      ]
    },
     {
      "commune": "PARIS-06EME",
      "lat": "48.8508047851976",
      "lignes": {
        "metro": [
          "4"
        ]
      },
      "lng": "2.33086756439724",
      "nom": "Saint-Sulpice",
      "num": "1698",
      "type": "metro",
      "isHub": false,
      "routes": [
        [
          16,
          17
        ],
        [
          17,
          9
        ]
      ]
    },
     {
      "commune": "PARIS-03EME",
      "lat": "48.8612805878047",
      "lignes": {
        "metro": [
          "8"
        ]
      },
      "lng": "2.36702409525746",
      "nom": "Saint-Sébastien-Froissart",
      "num": "1699",
      "type": "metro",
      "isHub": false,
      "routes": [
        [
          26,
          18
        ],
        [
          27,
          19
        ]
      ]
    },
     {
      "commune": "PARIS-02EME",
      "lat": "48.8674133308826",
      "lignes": {
        "metro": [
          "3"
        ]
      },
      "lng": "2.3466136387446",
      "nom": "Sentier",
      "num": "1702",
      "type": "metro",
      "isHub": false,
      "routes": [
        [
          12,
          14
        ],
        [
          13,
          10
        ]
      ]
    },
     {
      "commune": "PARIS-14EME",
      "lat": "48.8317625860832",
      "lignes": {
        "metro": [
          "13"
        ]
      },
      "lng": "2.31406734480211",
      "nom": "Plaisance",
      "num": "1705",
      "type": "metro",
      "isHub": false,
      "routes": [
        [
          36,
          19
        ],
        [
          37,
          21
        ],
        [
          38,
          4
        ],
        [
          39,
          4
        ]
      ]
    },
    {
      "commune": "PARIS-10EME",
      "lat": "48.8773395505122",
      "lignes": {
        "metro": [
          "7"
        ]
      },
      "lng": "2.34960623902438",
      "nom": "Poissonnière",
      "num": "1706",
      "type": "metro",
      "isHub": false,
      "routes": [
        [
          22,
          11
        ],
        [
          23,
          11
        ],
        [
          24,
          21
        ],
        [
          25,
          22
        ]
      ]
    },
     {
      "commune": "LEVALLOIS-PERRET",
      "lat": "48.8971187551468",
      "lignes": {
        "metro": [
          "3"
        ]
      },
      "lng": "2.28048941733931",
      "nom": "Pont de Levallois-Bécon",
      "num": "1708",
      "type": "metro",
      "isHub": false,
      "routes": [
        [
          12,
          0
        ],
        [
          13,
          24
        ]
      ]
    },
     {
      "commune": "NEUILLY-SUR-SEINE",
      "lat": "48.8845093796136",
      "lignes": {
        "metro": [
          "1"
        ]
      },
      "lng": "2.25989172465632",
      "nom": "Pont de Neuilly",
      "num": "1709",
      "type": "metro",
      "isHub": false,
      "routes": [
        [
          8,
          22
        ],
        [
          9,
          2
        ]
      ]
    },
     {
      "commune": "BOULOGNE-BILLANCOURT",
      "lat": "48.8295929841028",
      "lignes": {
        "metro": [
          "9"
        ]
      },
      "lng": "2.23025364790437",
      "nom": "Pont de Sèvres",
      "num": "1710",
      "type": "metro",
      "isHub": true,
      "routes": [
        [
          28,
          0
        ],
        [
          29,
          36
        ],
        [
          86,
          1
        ],
        [
          87,
          0
        ]
      ]
    },
     {
      "commune": "PARIS-04EME",
      "lat": "48.8533107454827",
      "lignes": {
        "metro": [
          "7"
        ]
      },
      "lng": "2.35745881597611",
      "nom": "Pont Marie (Cité des Arts)",
      "num": "1711",
      "type": "metro",
      "isHub": false,
      "routes": [
        [
          22,
          20
        ],
        [
          23,
          20
        ],
        [
          24,
          12
        ],
        [
          25,
          13
        ]
      ]
    },
     {
      "commune": "PARIS-01ER",
      "lat": "48.8584022524727",
      "lignes": {
        "metro": [
          "7"
        ]
      },
      "lng": "2.34194923634659",
      "nom": "Pont Neuf",
      "num": "1712",
      "type": "metro",
      "isHub": false,
      "routes": [
        [
          22,
          18
        ],
        [
          23,
          18
        ],
        [
          24,
          14
        ],
        [
          25,
          15
        ]
      ]
    },
     {
      "commune": "PARIS-16EME",
      "lat": "48.8716448024995",
      "lignes": {
        "metro": [
          "2"
        ]
      },
      "lng": "2.2766480745793",
      "nom": "Porte Dauphine (Mal de Lattre)",
      "num": "1714",
      "type": "metro",
      "isHub": false,
      "routes": [
        [
          10,
          0
        ],
        [
          11,
          24
        ]
      ]
    },
    {
      "commune": "PARIS-12EME",
      "lat": "48.8354388891914",
      "lignes": {
        "metro": [
          "8"
        ]
      },
      "lng": "2.40601835314784",
      "nom": "Porte Dorée",
      "num": "1715",
      "type": "metro",
      "isHub": true,
      "routes": [
        [
          26,
          27
        ],
        [
          27,
          10
        ],
        [
          106,
          1
        ],
        [
          107,
          0
        ]
      ],
      "isAmbiguous": true
    },
     {
      "commune": "PARIS-17EME",
      "lat": "48.877964502968",
      "lignes": {
        "metro": [
          "1"
        ]
      },
      "lng": "2.28183617255428",
      "nom": "Porte Maillot",
      "num": "1716",
      "type": "metro",
      "isHub": false,
      "routes": [
        [
          8,
          20
        ],
        [
          9,
          4
        ]
      ]
    },
     {
      "commune": "PARIS-16EME",
      "lat": "48.8480737822692",
      "lignes": {
        "metro": [
          "10"
        ]
      },
      "lng": "2.25864782764785",
      "nom": "Porte d'Auteuil",
      "num": "1717",
      "type": "metro",
      "isHub": false,
      "routes": [
        [
          31,
          17
        ]
      ]
    },
     {
      "commune": "PARIS-13EME",
      "lat": "48.8189346110715",
      "lignes": {
        "metro": [
          "7"
        ]
      },
      "lng": "2.35985580265649",
      "nom": "Porte d'Italie",
      "num": "1718",
      "type": "metro",
      "isHub": true,
      "routes": [
        [
          23,
          29
        ],
        [
          25,
          4
        ],
        [
          96,
          1
        ],
        [
          97,
          0
        ]
      ],
      "isAmbiguous": true
    },
    {
      "commune": "PARIS-13EME",
      "lat": "48.8212704974684",
      "lignes": {
        "metro": [
          "7"
        ]
      },
      "lng": "2.36909494347048",
      "nom": "Porte d'Ivry",
      "num": "1719",
      "type": "metro",
      "isHub": true,
      "routes": [
        [
          23,
          31
        ],
        [
          25,
          2
        ],
        [
          100,
          1
        ],
        [
          101,
          0
        ]
      ],
      "isAmbiguous": true
    },
     {
      "commune": "PARIS-14EME",
      "lat": "48.8226012875276",
      "lignes": {
        "metro": [
          "4"
        ]
      },
      "lng": "2.3248055530705",
      "nom": "Porte d'Orléans (Général Leclerc)",
      "num": "1720",
      "type": "metro",
      "isHub": true,
      "routes": [
        [
          16,
          25
        ],
        [
          17,
          1
        ],
        [
          94,
          1
        ],
        [
          95,
          0
        ]
      ]
    },
     {
      "commune": "PARIS-20EME",
      "lat": "48.8643963044636",
      "lignes": {
        "metro": [
          "3"
        ]
      },
      "lng": "2.40799995272687",
      "nom": "Porte de Bagnolet",
      "num": "1721",
      "type": "metro",
      "isHub": true,
      "routes": [
        [
          12,
          23
        ],
        [
          13,
          1
        ],
        [
          120,
          1
        ],
        [
          121,
          0
        ]
      ],
      "isAmbiguous": true
    },
    {
      "commune": "PARIS-17EME",
      "lat": "48.8855507197363",
      "lignes": {
        "metro": [
          "3"
        ]
      },
      "lng": "2.29274204135011",
      "nom": "Porte de Champerret",
      "num": "1722",
      "type": "metro",
      "isHub": false,
      "routes": [
        [
          12,
          3
        ],
        [
          13,
          21
        ]
      ]
    },
     {
      "commune": "PARIS-12EME",
      "lat": "48.8325258939597",
      "lignes": {
        "metro": [
          "8"
        ]
      },
      "lng": "2.39970109937032",
      "nom": "Porte de Charenton",
      "num": "1723",
      "type": "metro",
      "isHub": true,
      "routes": [
        [
          26,
          28
        ],
        [
          27,
          9
        ],
        [
          104,
          1
        ],
        [
          105,
          0
        ]
      ],
      "isAmbiguous": true
    },
     {
      "commune": "PARIS-13EME",
      "lat": "48.8201452157747",
      "lignes": {
        "metro": [
          "7"
        ]
      },
      "lng": "2.36434644526859",
      "nom": "Porte de Choisy",
      "num": "1724",
      "type": "metro",
      "isHub": true,
      "routes": [
        [
          23,
          30
        ],
        [
          25,
          3
        ],
        [
          98,
          1
        ],
        [
          99,
          0
        ]
      ],
      "isAmbiguous": true
    },
     {
      "commune": "PARIS-17EME",
      "lat": "48.8943611610735",
      "lignes": {
        "metro": [
          "13"
        ]
      },
      "lng": "2.31373834378485",
      "nom": "Porte de Clichy",
      "num": "1725",
      "type": "metro",
      "isHub": false,
      "routes": [
        [
          36,
          4
        ],
        [
          38,
          19
        ]
      ]
    },
     {
      "commune": "PARIS-18EME",
      "lat": "48.8972870603971",
      "lignes": {
        "metro": [
          "4"
        ]
      },
      "lng": "2.34477887737988",
      "nom": "Porte de Clignancourt",
      "num": "1726",
      "type": "metro",
      "isHub": false,
      "routes": [
        [
          16,
          0
        ],
        [
          17,
          26
        ]
      ]
    },
     {
      "commune": "PARIS-20EME",
      "lat": "48.8534495044418",
      "lignes": {
        "metro": [
          "9"
        ]
      },
      "lng": "2.41043444867178",
      "nom": "Porte de Montreuil",
      "num": "1727",
      "type": "metro",
      "isHub": true,
      "routes": [
        [
          28,
          33
        ],
        [
          29,
          3
        ],
        [
          122,
          1
        ],
        [
          123,
          0
        ]
      ],
      "isAmbiguous": true
    },
     {
      "commune": "PARIS-19EME",
      "lat": "48.8883327364608",
      "lignes": {
        "metro": [
          "5"
        ]
      },
      "lng": "2.39146861403051",
      "nom": "Porte de Pantin",
      "num": "1728",
      "type": "metro",
      "isHub": true,
      "routes": [
        [
          18,
          4
        ],
        [
          19,
          17
        ],
        [
          114,
          1
        ],
        [
          115,
          0
        ]
      ]
    },
     {
      "commune": "PARIS-16EME",
      "lat": "48.8378883866228",
      "lignes": {
        "metro": [
          "9"
        ]
      },
      "lng": "2.25680251499702",
      "nom": "Porte de Saint-Cloud",
      "num": "1729",
      "type": "metro",
      "isHub": false,
      "routes": [
        [
          28,
          3
        ],
        [
          29,
          33
        ]
      ]
    },
     {
      "commune": "PARIS-18EME",
      "lat": "48.8972510523147",
      "lignes": {
        "metro": [
          "13"
        ]
      },
      "lng": "2.32883766969025",
      "nom": "Porte de Saint-Ouen",
      "num": "1730",
      "type": "metro",
      "isHub": false,
      "routes": [
        [
          37,
          6
        ],
        [
          39,
          19
        ]
      ]
    },
     {
      "commune": "PARIS-14EME",
      "lat": "48.8276756893336",
      "lignes": {
        "metro": [
          "13"
        ]
      },
      "lng": "2.30534014881766",
      "nom": "Porte de Vanves",
      "num": "1731",
      "type": "metro",
      "isHub": true,
      "routes": [
        [
          36,
          20
        ],
        [
          37,
          22
        ],
        [
          38,
          3
        ],
        [
          39,
          3
        ],
        [
          92,
          1
        ],
        [
          93,
          0
        ]
      ],
      "isAmbiguous": true
    },
     {
      "commune": "PARIS-15EME",
      "lat": "48.8324619819728",
      "lignes": {
        "metro": [
          "12"
        ]
      },
      "lng": "2.28800279639373",
      "nom": "Porte de Versailles",
      "num": "1732",
      "type": "metro",
      "isHub": true,
      "routes": [
        [
          34,
          26
        ],
        [
          35,
          2
        ],
        [
          90,
          1
        ],
        [
          91,
          1
        ]
      ],
      "isAmbiguous": true
    },
     {
      "commune": "PARIS-20EME",
      "lat": "48.8472657113718",
      "lignes": {
        "metro": [
          "1"
        ]
      },
      "lng": "2.40888352534985",
      "nom": "Porte de Vincennes",
      "num": "1733",
      "type": "metro",
      "isHub": true,
      "routes": [
        [
          8,
          3
        ],
        [
          9,
          21
        ],
        [
          108,
          2
        ],
        [
          109,
          0
        ]
      ],
      "isAmbiguous": true
    },
     {
      "commune": "PARIS-18EME",
      "lat": "48.8980716716703",
      "lignes": {
        "metro": [
          "12"
        ]
      },
      "lng": "2.35909154194382",
      "nom": "Porte de la Chapelle",
      "num": "1734",
      "type": "metro",
      "isHub": true,
      "routes": [
        [
          34,
          1
        ],
        [
          35,
          27
        ],
        [
          110,
          1
        ],
        [
          111,
          0
        ]
      ],
      "isAmbiguous": true
    },
     {
      "commune": "PARIS-19EME",
      "lat": "48.8978102190581",
      "lignes": {
        "metro": [
          "7"
        ]
      },
      "lng": "2.38580611263705",
      "nom": "Porte de la Villette",
      "num": "1735",
      "type": "metro",
      "isHub": true,
      "routes": [
        [
          22,
          3
        ],
        [
          23,
          3
        ],
        [
          24,
          29
        ],
        [
          25,
          30
        ],
        [
          112,
          1
        ],
        [
          113,
          0
        ]
      ]
    },
     {
      "commune": "PARIS-20EME",
      "lat": "48.8770699912197",
      "lignes": {
        "metro": [
          "11",
          "3B"
        ]
      },
      "lng": "2.40638582344912",
      "nom": "Porte des Lilas",
      "num": "1736",
      "type": "metro",
      "isHub": true,
      "routes": [
        [
          14,
          0
        ],
        [
          15,
          3
        ],
        [
          32,
          1
        ],
        [
          33,
          11
        ],
        [
          118,
          1
        ],
        [
          119,
          0
        ]
      ],
      "isAmbiguous": true
    },
     {
      "commune": "PARIS-19EME",
      "lat": "48.8799349564117",
      "lignes": {
        "metro": [
          "7B"
        ]
      },
      "lng": "2.39907689689178",
      "nom": "Pré-Saint-Gervais",
      "num": "1737",
      "type": "metro",
      "isHub": true,
      "routes": [
        [
          42,
          6
        ],
        [
          43,
          0
        ],
        [
          116,
          1
        ],
        [
          117,
          0
        ]
      ]
    },
     {
      "commune": "PARIS-01ER",
      "lat": "48.8669463020695",
      "lignes": {
        "metro": [
          "7"
        ]
      },
      "lng": "2.33366506577888",
      "nom": "Pyramides",
      "num": "1738",
      "type": "metro",
      "isHub": false,
      "routes": [
        [
          22,
          16
        ],
        [
          23,
          16
        ],
        [
          24,
          16
        ],
        [
          25,
          17
        ]
      ],
      "isAmbiguous": true
    },
     {
      "commune": "PARIS-17EME",
      "lat": "48.8845503317922",
      "lignes": {
        "metro": [
          "3"
        ]
      },
      "lng": "2.29751704870328",
      "nom": "Péreire",
      "num": "1740",
      "type": "metro",
      "isHub": false,
      "routes": [
        [
          12,
          4
        ],
        [
          13,
          20
        ]
      ]
    },
     {
      "commune": "PARIS-11EME",
      "lat": "48.8626131584417",
      "lignes": {
        "metro": [
          "2",
          "3"
        ]
      },
      "lng": "2.38672181193918",
      "nom": "Père-Lachaise",
      "num": "1741",
      "type": "metro",
      "isHub": true,
      "routes": [
        [
          10,
          20
        ],
        [
          11,
          4
        ],
        [
          12,
          21
        ],
        [
          13,
          3
        ]
      ]
    },
     {
      "commune": "PARIS-13EME",
      "lat": "48.8373989542089",
      "lignes": {
        "metro": [
          "6"
        ]
      },
      "lng": "2.37378388489769",
      "nom": "Quai de la Gare",
      "num": "1742",
      "type": "metro",
      "isHub": false,
      "routes": [
        [
          20,
          21
        ],
        [
          21,
          6
        ]
      ]
    },
     {
      "commune": "PARIS-12EME",
      "lat": "48.8457951983436",
      "lignes": {
        "metro": [
          "5"
        ]
      },
      "lng": "2.36703563413483",
      "nom": "Quai de la Rapée",
      "num": "1743",
      "type": "metro",
      "isHub": false,
      "routes": [
        [
          18,
          17
        ],
        [
          19,
          4
        ]
      ]
    },
    {
      "commune": "PARIS-02EME",
      "lat": "48.8693729306069",
      "lignes": {
        "metro": [
          "3"
        ]
      },
      "lng": "2.33574247484458",
      "nom": "Quatre Septembre",
      "num": "1744",
      "type": "metro",
      "isHub": false,
      "routes": [
        [
          12,
          12
        ],
        [
          13,
          12
        ]
      ]
    },
     {
      "commune": "PARIS-16EME",
      "lat": "48.8473396417237",
      "lignes": {
        "metro": [
          "10"
        ]
      },
      "lng": "2.27340595925819",
      "nom": "Mirabeau",
      "num": "1746",
      "type": "metro",
      "isHub": false,
      "routes": [
        [
          30,
          4
        ]
      ]
    },
     {
      "commune": "PARIS-08EME",
      "lat": "48.8737063841262",
      "lignes": {
        "metro": [
          "13",
          "9"
        ]
      },
      "lng": "2.31519918493339",
      "nom": "Miromesnil",
      "num": "1747",
      "type": "metro",
      "isHub": true,
      "routes": [
        [
          28,
          16
        ],
        [
          29,
          20
        ],
        [
          36,
          10
        ],
        [
          37,
          12
        ],
        [
          38,
          13
        ],
        [
          39,
          13
        ]
      ]
    },
     {
      "commune": "PARIS-08EME",
      "lat": "48.8806306676395",
      "lignes": {
        "metro": [
          "2"
        ]
      },
      "lng": "2.30896624223491",
      "nom": "Monceau",
      "num": "1749",
      "type": "metro",
      "isHub": false,
      "routes": [
        [
          10,
          5
        ],
        [
          11,
          19
        ]
      ]
    },
     {
      "commune": "PARIS-12EME",
      "lat": "48.8442504626131",
      "lignes": {
        "metro": [
          "8"
        ]
      },
      "lng": "2.38980213751236",
      "nom": "Montgallet",
      "num": "1750",
      "type": "metro",
      "isHub": false,
      "routes": [
        [
          26,
          24
        ],
        [
          27,
          13
        ]
      ]
    },
     {
      "commune": "PARIS-14EME",
      "lat": "48.8430428502558",
      "lignes": {
        "metro": [
          "12",
          "13",
          "4",
          "6"
        ]
      },
      "lng": "2.32263505064878",
      "nom": "Montparnasse-Bienvenue",
      "num": "1751",
      "type": "metro",
      "isHub": true,
      "routes": [
        [
          16,
          19
        ],
        [
          17,
          7
        ],
        [
          20,
          11
        ],
        [
          21,
          16
        ],
        [
          34,
          20
        ],
        [
          35,
          8
        ],
        [
          36,
          16
        ],
        [
          37,
          18
        ],
        [
          38,
          7
        ],
        [
          39,
          7
        ]
      ]
    },
    {
      "commune": "PARIS-14EME",
      "lat": "48.8313196995984",
      "lignes": {
        "metro": [
          "4"
        ]
      },
      "lng": "2.32942693483694",
      "nom": "Mouton-Duvernet",
      "num": "1753",
      "type": "metro",
      "isHub": false,
      "routes": [
        [
          16,
          23
        ],
        [
          17,
          3
        ]
      ]
    },
     {
      "commune": "PARIS-11EME",
      "lat": "48.8659488111593",
      "lignes": {
        "metro": [
          "2"
        ]
      },
      "lng": "2.38339427851543",
      "nom": "Ménilmontant",
      "num": "1754",
      "type": "metro",
      "isHub": false,
      "routes": [
        [
          10,
          19
        ],
        [
          11,
          5
        ]
      ]
    },
     {
      "commune": "PARIS-12EME",
      "lat": "48.8484657505532",
      "lignes": {
        "metro": [
          "1",
          "2",
          "6",
          "9"
        ],
        "rer": [
          "A"
        ]
      },
      "lng": "2.39590574456544",
      "nom": "Nation",
      "num": "1758",
      "type": "metro",
      "isHub": true,
      "routes": [
        [
          8,
          4
        ],
        [
          9,
          20
        ],
        [
          10,
          24
        ],
        [
          11,
          0
        ],
        [
          20,
          27
        ],
        [
          21,
          0
        ],
        [
          28,
          30
        ],
        [
          29,
          6
        ],
        [
          68,
          0
        ],
        [
          69,
          1
        ]
      ],
      "isAmbiguous": true
    },
     {
      "commune": "PARIS-13EME",
      "lat": "48.8327104551183",
      "lignes": {
        "metro": [
          "6"
        ]
      },
      "lng": "2.36204546183122",
      "nom": "Nationale",
      "num": "1761",
      "type": "metro",
      "isHub": false,
      "routes": [
        [
          20,
          19
        ],
        [
          21,
          8
        ]
      ]
    },
     {
      "commune": "PARIS-09EME",
      "lat": "48.8766256956919",
      "lignes": {
        "metro": [
          "12"
        ]
      },
      "lng": "2.33845371043763",
      "nom": "Notre-Dame de Lorette",
      "num": "1767",
      "type": "metro",
      "isHub": false,
      "routes": [
        [
          34,
          9
        ],
        [
          35,
          19
        ]
      ]
    },
     {
      "commune": "PARIS-06EME",
      "lat": "48.8449178498434",
      "lignes": {
        "metro": [
          "12"
        ]
      },
      "lng": "2.32885296806704",
      "nom": "Notre-Dame des Champs",
      "num": "1768",
      "type": "metro",
      "isHub": false,
      "routes": [
        [
          34,
          19
        ],
        [
          35,
          9
        ]
      ]
    },
     {
      "commune": "PARIS-11EME",
      "lat": "48.8645156235565",
      "lignes": {
        "metro": [
          "5",
          "9"
        ]
      },
      "lng": "2.36867423637139",
      "nom": "Oberkampf",
      "num": "1769",
      "type": "metro",
      "isHub": true,
      "routes": [
        [
          18,
          13
        ],
        [
          19,
          8
        ],
        [
          28,
          25
        ],
        [
          29,
          11
        ]
      ]
    },
     {
      "commune": "PARIS-06EME",
      "lat": "48.8522489363668",
      "lignes": {
        "metro": [
          "10",
          "4"
        ]
      },
      "lng": "2.33855755868422",
      "nom": "Odéon",
      "num": "1770",
      "type": "metro",
      "isHub": true,
      "routes": [
        [
          16,
          15
        ],
        [
          17,
          11
        ],
        [
          30,
          14
        ],
        [
          31,
          5
        ]
      ]
    },
     {
      "commune": "PARIS-09EME",
      "lat": "48.8707029411588",
      "lignes": {
        "metro": [
          "3",
          "7",
          "8"
        ]
      },
      "lng": "2.33180515640395",
      "nom": "Opéra",
      "num": "1771",
      "type": "metro",
      "isHub": true,
      "routes": [
        [
          12,
          11
        ],
        [
          13,
          13
        ],
        [
          22,
          15
        ],
        [
          23,
          15
        ],
        [
          24,
          17
        ],
        [
          25,
          18
        ],
        [
          26,
          11
        ],
        [
          27,
          26
        ],
        [
          66,
          2
        ],
        [
          67,
          0
        ]
      ]
    },
     {
      "commune": "PARIS-19EME",
      "lat": "48.8869750227319",
      "lignes": {
        "metro": [
          "5"
        ]
      },
      "lng": "2.38602958795485",
      "nom": "Ourcq",
      "num": "1773",
      "type": "metro",
      "isHub": false,
      "routes": [
        [
          18,
          5
        ],
        [
          19,
          16
        ]
      ]
    },
     {
      "commune": "PARIS-01ER",
      "lat": "48.8628468213553",
      "lignes": {
        "metro": [
          "1",
          "7"
        ]
      },
      "lng": "2.33581661194832",
      "nom": "Palais-Royal (Musée du Louvre)",
      "num": "1774",
      "type": "metro",
      "isHub": true,
      "routes": [
        [
          8,
          12
        ],
        [
          9,
          12
        ],
        [
          22,
          17
        ],
        [
          23,
          17
        ],
        [
          24,
          15
        ],
        [
          25,
          16
        ]
      ]
    },
     {
      "commune": "PARIS-11EME",
      "lat": "48.8651606067898",
      "lignes": {
        "metro": [
          "3"
        ]
      },
      "lng": "2.37584679468414",
      "nom": "Parmentier",
      "num": "1779",
      "type": "metro",
      "isHub": false,
      "routes": [
        [
          12,
          19
        ],
        [
          13,
          5
        ]
      ]
    },
     {
      "commune": "PARIS-16EME",
      "lat": "48.8576333212361",
      "lignes": {
        "metro": [
          "6"
        ]
      },
      "lng": "2.28586501138629",
      "nom": "Passy",
      "num": "1780",
      "type": "metro",
      "isHub": false,
      "routes": [
        [
          20,
          4
        ],
        [
          21,
          23
        ]
      ]
    },
     {
      "commune": "PARIS-15EME",
      "lat": "48.8429383503106",
      "lignes": {
        "metro": [
          "12",
          "6"
        ]
      },
      "lng": "2.31265644504969",
      "nom": "Pasteur",
      "num": "1781",
      "type": "metro",
      "isHub": true,
      "routes": [
        [
          20,
          10
        ],
        [
          21,
          17
        ],
        [
          34,
          22
        ],
        [
          35,
          6
        ]
      ]
    },
     {
      "commune": "PARIS-20EME",
      "lat": "48.868519874537",
      "lignes": {
        "metro": [
          "3B"
        ]
      },
      "lng": "2.40135199013901",
      "nom": "Pelleport",
      "num": "1782",
      "type": "metro",
      "isHub": false,
      "routes": [
        [
          14,
          2
        ],
        [
          15,
          1
        ]
      ]
    },
     {
      "commune": "PARIS-14EME",
      "lat": "48.8338169001883",
      "lignes": {
        "metro": [
          "13"
        ]
      },
      "lng": "2.31766395823272",
      "nom": "Pernéty",
      "num": "1783",
      "type": "metro",
      "isHub": false,
      "routes": [
        [
          36,
          18
        ],
        [
          37,
          20
        ],
        [
          38,
          5
        ],
        [
          39,
          5
        ]
      ]
    },
     {
      "commune": "PARIS-11EME",
      "lat": "48.8583654720925",
      "lignes": {
        "metro": [
          "2"
        ]
      },
      "lng": "2.38938739145325",
      "nom": "Philippe Auguste",
      "num": "1784",
      "type": "metro",
      "isHub": false,
      "routes": [
        [
          10,
          21
        ],
        [
          11,
          3
        ]
      ]
    },
     {
      "commune": "PARIS-12EME",
      "lat": "48.8452604478542",
      "lignes": {
        "metro": [
          "6"
        ]
      },
      "lng": "2.40125516453104",
      "nom": "Picpus",
      "num": "1785",
      "type": "metro",
      "isHub": false,
      "routes": [
        [
          20,
          26
        ],
        [
          21,
          1
        ]
      ]
    },
     {
      "commune": "IVRY-SUR-SEINE",
      "lat": "48.8156836605119",
      "lignes": {
        "metro": [
          "7"
        ]
      },
      "lng": "2.3772866229916",
      "nom": "Pierre et Marie Curie",
      "num": "1786",
      "type": "metro",
      "isHub": false,
      "routes": [
        [
          23,
          32
        ],
        [
          25,
          1
        ]
      ]
    },
     {
      "commune": "PARIS-18EME",
      "lat": "48.8824943850352",
      "lignes": {
        "metro": [
          "12",
          "2"
        ]
      },
      "lng": "2.3376226051814",
      "nom": "Pigalle",
      "num": "1787",
      "type": "metro",
      "isHub": true,
      "routes": [
        [
          10,
          10
        ],
        [
          11,
          14
        ],
        [
          34,
          7
        ],
        [
          35,
          21
        ]
      ]
    },
     {
      "commune": "PARIS-05EME",
      "lat": "48.8431960998294",
      "lignes": {
        "metro": [
          "7"
        ]
      },
      "lng": "2.35217845099659",
      "nom": "Place Monge (Jardin des Plantes)",
      "num": "1788",
      "type": "metro",
      "isHub": false,
      "routes": [
        [
          22,
          23
        ],
        [
          23,
          23
        ],
        [
          24,
          9
        ],
        [
          25,
          10
        ]
      ]
    },
     {
      "commune": "PARIS-13EME",
      "lat": "48.8314061535553",
      "lignes": {
        "metro": [
          "5",
          "6",
          "7"
        ]
      },
      "lng": "2.35572137338498",
      "nom": "Place d'Italie",
      "num": "1789",
      "type": "metro",
      "isHub": true,
      "routes": [
        [
          18,
          21
        ],
        [
          19,
          0
        ],
        [
          20,
          18
        ],
        [
          21,
          9
        ],
        [
          22,
          26
        ],
        [
          23,
          26
        ],
        [
          24,
          6
        ],
        [
          25,
          7
        ]
      ]
    },
    {
      "commune": "PARIS-09EME",
      "lat": "48.8836233671973",
      "lignes": {
        "metro": [
          "13",
          "2"
        ]
      },
      "lng": "2.32730682210246",
      "nom": "Place de Clichy",
      "num": "1790",
      "type": "metro",
      "isHub": true,
      "routes": [
        [
          10,
          8
        ],
        [
          11,
          16
        ],
        [
          36,
          7
        ],
        [
          37,
          9
        ],
        [
          38,
          16
        ],
        [
          39,
          16
        ]
      ]
    },
     {
      "commune": "PARIS-19EME",
      "lat": "48.8768191471423",
      "lignes": {
        "metro": [
          "11",
          "7B"
        ]
      },
      "lng": "2.39347313514395",
      "nom": "Place des FÃªtes",
      "num": "1792",
      "type": "metro",
      "isHub": true,
      "routes": [
        [
          32,
          3
        ],
        [
          33,
          9
        ],
        [
          42,
          5
        ]
      ]
    },
     {
      "commune": "LE KREMLIN-BICETRE",
      "lat": "48.8103806352167",
      "lignes": {
        "metro": [
          "7"
        ]
      },
      "lng": "2.36161295005801",
      "nom": "Le Kremlin-BicÃªtre",
      "num": "1793",
      "type": "metro",
      "isHub": false,
      "routes": [
        [
          22,
          29
        ],
        [
          24,
          3
        ]
      ]
    },
     {
      "commune": "PARIS-09EME",
      "lat": "48.8749360634737",
      "lignes": {
        "metro": [
          "7"
        ]
      },
      "lng": "2.33980253815072",
      "nom": "Le Peletier",
      "num": "1795",
      "type": "metro",
      "isHub": false,
      "routes": [
        [
          22,
          13
        ],
        [
          23,
          13
        ],
        [
          24,
          19
        ],
        [
          25,
          20
        ]
      ]
    },
     {
      "commune": "PARIS-12EME",
      "lat": "48.8511941201646",
      "lignes": {
        "metro": [
          "8"
        ]
      },
      "lng": "2.37594535235887",
      "nom": "Ledru-Rollin",
      "num": "1798",
      "type": "metro",
      "isHub": false,
      "routes": [
        [
          26,
          21
        ],
        [
          27,
          16
        ]
      ]
    },
     {
      "commune": "PARIS-13EME",
      "lat": "48.8366105352574",
      "lignes": {
        "metro": [
          "7"
        ]
      },
      "lng": "2.35164217355525",
      "nom": "Les Gobelins",
      "num": "1800",
      "type": "metro",
      "isHub": false,
      "routes": [
        [
          22,
          25
        ],
        [
          23,
          25
        ],
        [
          24,
          7
        ],
        [
          25,
          8
        ]
      ]
    },
     {
      "commune": "PARIS-01ER",
      "lat": "48.862194721152",
      "lignes": {
        "metro": [
          "4"
        ]
      },
      "lng": "2.34583626729201",
      "nom": "Les Halles",
      "num": "1801",
      "type": "metro",
      "isHub": true,
      "routes": [
        [
          16,
          11
        ],
        [
          17,
          15
        ],
        [
          70,
          2
        ],
        [
          71,
          0
        ]
      ]
    },
     {
      "commune": "NEUILLY-SUR-SEINE",
      "lat": "48.880901799077",
      "lignes": {
        "metro": [
          "1"
        ]
      },
      "lng": "2.27253908542214",
      "nom": "Les Sablons (Jardin d'acclimatation)",
      "num": "1802",
      "type": "metro",
      "isHub": false,
      "routes": [
        [
          8,
          21
        ],
        [
          9,
          3
        ]
      ]
    },
     {
      "commune": "CHARENTON-LE-PONT",
      "lat": "48.8258380800419",
      "lignes": {
        "metro": [
          "8"
        ]
      },
      "lng": "2.40692557755493",
      "nom": "Liberté",
      "num": "1803",
      "type": "metro",
      "isHub": false,
      "routes": [
        [
          26,
          29
        ],
        [
          27,
          8
        ]
      ]
    },
     {
      "commune": "PARIS-08EME",
      "lat": "48.8795640572124",
      "lignes": {
        "metro": [
          "13"
        ]
      },
      "lng": "2.32651728518985",
      "nom": "Liège",
      "num": "1804",
      "type": "metro",
      "isHub": false,
      "routes": [
        [
          36,
          8
        ],
        [
          37,
          10
        ],
        [
          38,
          15
        ],
        [
          39,
          15
        ]
      ]
    },
    {
      "commune": "PARIS-10EME",
      "lat": "48.8810261029957",
      "lignes": {
        "metro": [
          "7B",
          "7"
        ]
      },
      "lng": "2.3655569576092",
      "nom": "Louis Blanc",
      "num": "1806",
      "type": "metro",
      "isHub": true,
      "routes": [
        [
          22,
          8
        ],
        [
          23,
          8
        ],
        [
          24,
          24
        ],
        [
          25,
          25
        ],
        [
          42,
          0
        ],
        [
          43,
          6
        ]
      ]
    },
     {
      "commune": "LEVALLOIS-PERRET",
      "lat": "48.8888292427619",
      "lignes": {
        "metro": [
          "3"
        ]
      },
      "lng": "2.28813731087893",
      "nom": "Louise Michel",
      "num": "1807",
      "type": "metro",
      "isHub": false,
      "routes": [
        [
          12,
          2
        ],
        [
          13,
          22
        ]
      ]
    },
     {
      "commune": "PARIS-15EME",
      "lat": "48.8384881095778",
      "lignes": {
        "metro": [
          "8"
        ]
      },
      "lng": "2.28175852328733",
      "nom": "Lourmel",
      "num": "1808",
      "type": "metro",
      "isHub": false,
      "routes": [
        [
          26,
          1
        ],
        [
          27,
          36
        ]
      ]
    },
     {
      "commune": "PARIS-01ER",
      "lat": "48.8605382946574",
      "lignes": {
        "metro": [
          "1"
        ]
      },
      "lng": "2.34100049025543",
      "nom": "Louvre-Rivoli",
      "num": "1809",
      "type": "metro",
      "isHub": false,
      "routes": [
        [
          8,
          11
        ],
        [
          9,
          13
        ]
      ]
    },
     {
      "commune": "PARIS-06EME",
      "lat": "48.8528181349058",
      "lignes": {
        "metro": [
          "10"
        ]
      },
      "lng": "2.33540928887416",
      "nom": "Mabillon",
      "num": "1812",
      "type": "metro",
      "isHub": false,
      "routes": [
        [
          30,
          13
        ],
        [
          31,
          6
        ]
      ]
    },
     {
      "commune": "PARIS-08EME",
      "lat": "48.8700643517776",
      "lignes": {
        "metro": [
          "12",
          "14",
          "8"
        ]
      },
      "lng": "2.32516370025939",
      "nom": "Madeleine",
      "num": "1813",
      "type": "metro",
      "isHub": true,
      "routes": [
        [
          26,
          10
        ],
        [
          27,
          27
        ],
        [
          34,
          12
        ],
        [
          35,
          16
        ],
        [
          40,
          7
        ],
        [
          41,
          1
        ]
      ]
    },
     {
      "commune": "ISSY-LES-MOULINEAUX",
      "lat": "48.8248138108686",
      "lignes": {
        "metro": [
          "12"
        ]
      },
      "lng": "2.27350399984748",
      "nom": "Mairie d'Issy",
      "num": "1814",
      "type": "metro",
      "isHub": false,
      "routes": [
        [
          34,
          28
        ],
        [
          35,
          0
        ]
      ]
    },
     {
      "commune": "IVRY-SUR-SEINE",
      "lat": "48.8111784269088",
      "lignes": {
        "metro": [
          "7"
        ]
      },
      "lng": "2.3838082733405",
      "nom": "Mairie d'Ivry",
      "num": "1815",
      "type": "metro",
      "isHub": false,
      "routes": [
        [
          23,
          33
        ],
        [
          25,
          0
        ]
      ]
    },
     {
      "commune": "CLICHY",
      "lat": "48.9036594416322",
      "lignes": {
        "metro": [
          "13"
        ]
      },
      "lng": "2.30556600125528",
      "nom": "Mairie de Clichy",
      "num": "1816",
      "type": "metro",
      "isHub": false,
      "routes": [
        [
          36,
          3
        ],
        [
          38,
          20
        ]
      ]
    },
     {
      "commune": "MONTREUIL",
      "lat": "48.8623601850863",
      "lignes": {
        "metro": [
          "9"
        ]
      },
      "lng": "2.44165620310216",
      "nom": "Mairie de Montreuil",
      "num": "1817",
      "type": "metro",
      "isHub": false,
      "routes": [
        [
          28,
          36
        ],
        [
          29,
          0
        ]
      ]
    },
    {
      "commune": "SAINT-OUEN",
      "lat": "48.9120620157054",
      "lignes": {
        "metro": [
          "13"
        ]
      },
      "lng": "2.334163015407",
      "nom": "Mairie de Saint-Ouen",
      "num": "1818",
      "type": "metro",
      "isHub": false,
      "routes": [
        [
          37,
          4
        ],
        [
          39,
          21
        ]
      ]
    },
     {
      "commune": "LES LILAS",
      "lat": "48.8797989953663",
      "lignes": {
        "metro": [
          "11"
        ]
      },
      "lng": "2.41623893515656",
      "nom": "Mairie des Lilas",
      "num": "1819",
      "type": "metro",
      "isHub": false,
      "routes": [
        [
          32,
          0
        ],
        [
          33,
          12
        ]
      ]
    },
     {
      "commune": "PARIS-13EME",
      "lat": "48.8226203194274",
      "lignes": {
        "metro": [
          "7"
        ]
      },
      "lng": "2.35818867672494",
      "nom": "Maison Blanche",
      "num": "1820",
      "type": "metro",
      "isHub": false,
      "routes": [
        [
          22,
          28
        ],
        [
          23,
          28
        ],
        [
          24,
          4
        ],
        [
          25,
          5
        ]
      ]
    },
    {
      "commune": "PARIS-17EME",
      "lat": "48.8828147397743",
      "lignes": {
        "metro": [
          "3"
        ]
      },
      "lng": "2.30969409432085",
      "nom": "Malesherbes",
      "num": "1826",
      "type": "metro",
      "isHub": false,
      "routes": [
        [
          12,
          6
        ],
        [
          13,
          18
        ]
      ]
    },
     {
      "commune": "PARIS-18EME",
      "lat": "48.8908769929214",
      "lignes": {
        "metro": [
          "12",
          "4"
        ]
      },
      "lng": "2.34983707163005",
      "nom": "Marcadet-Poissonniers",
      "num": "1828",
      "type": "metro",
      "isHub": true,
      "routes": [
        [
          16,
          2
        ],
        [
          17,
          24
        ],
        [
          34,
          3
        ],
        [
          35,
          25
        ]
      ]
    },
     {
      "commune": "BOULOGNE-BILLANCOURT",
      "lat": "48.8339143013551",
      "lignes": {
        "metro": [
          "9"
        ]
      },
      "lng": "2.24408138825371",
      "nom": "Marcel Sembat",
      "num": "1829",
      "type": "metro",
      "isHub": false,
      "routes": [
        [
          28,
          2
        ],
        [
          29,
          34
        ]
      ]
    },
     {
      "commune": "PARIS-18EME",
      "lat": "48.8903020649568",
      "lignes": {
        "metro": [
          "12"
        ]
      },
      "lng": "2.36020584275635",
      "nom": "Marx-Dormoy",
      "num": "1831",
      "type": "metro",
      "isHub": false,
      "routes": [
        [
          34,
          2
        ],
        [
          35,
          26
        ]
      ]
    },
     {
      "commune": "PARIS-05EME",
      "lat": "48.8499086726722",
      "lignes": {
        "metro": [
          "10"
        ]
      },
      "lng": "2.34850342965795",
      "nom": "Maubert-Mutualité",
      "num": "1834",
      "type": "metro",
      "isHub": false,
      "routes": [
        [
          30,
          16
        ],
        [
          31,
          3
        ]
      ]
    },
     {
      "commune": "PARIS-12EME",
      "lat": "48.8367033669766",
      "lignes": {
        "metro": [
          "8"
        ]
      },
      "lng": "2.40296916119538",
      "nom": "Michel Bizot",
      "num": "1835",
      "type": "metro",
      "isHub": false,
      "routes": [
        [
          26,
          26
        ],
        [
          27,
          11
        ]
      ]
    },
    {
      "commune": "PARIS-16EME",
      "lat": "48.8477403459598",
      "lignes": {
        "metro": [
          "10",
          "9"
        ]
      },
      "lng": "2.2642974417474",
      "nom": "Michel-Ange-Auteuil",
      "num": "1836",
      "type": "metro",
      "isHub": true,
      "routes": [
        [
          28,
          6
        ],
        [
          29,
          30
        ],
        [
          31,
          16
        ]
      ]
    },
     {
      "commune": "PARIS-16EME",
      "lat": "48.844867436543",
      "lignes": {
        "metro": [
          "10",
          "9"
        ]
      },
      "lng": "2.26204786419272",
      "nom": "Michel-Ange-Molitor",
      "num": "1837",
      "type": "metro",
      "isHub": true,
      "routes": [
        [
          28,
          5
        ],
        [
          29,
          31
        ],
        [
          30,
          2
        ]
      ]
    },
    {
      "commune": "PARIS-13EME",
      "lat": "48.8431055835176",
      "lignes": {
        "metro": [
          "10",
          "5"
        ]
      },
      "lng": "2.36431304821499",
      "nom": "Gare d'Austerlitz",
      "num": "1838",
      "type": "metro",
      "isHub": true,
      "routes": [
        [
          18,
          18
        ],
        [
          19,
          3
        ],
        [
          30,
          19
        ],
        [
          31,
          0
        ]
      ]
    },
    {
      "commune": "PARIS-12EME",
      "lat": "48.8447045450658",
      "lignes": {
        "metro": [
          "14",
          "1"
        ],
        "rer": [
          "A"
        ]
      },
      "lng": "2.37406590751466",
      "nom": "Gare de Lyon",
      "num": "1839",
      "type": "metro",
      "isHub": true,
      "routes": [
        [
          8,
          6
        ],
        [
          9,
          18
        ],
        [
          40,
          4
        ],
        [
          41,
          4
        ],
        [
          48,
          14
        ],
        [
          49,
          13
        ]
      ]
    },
     {
      "commune": "PARIS-10EME",
      "lat": "48.8760613055252",
      "lignes": {
        "metro": [
          "4",
          "5",
          "7"
        ]
      },
      "lng": "2.35791867724751",
      "nom": "Gare de l'Est (Verdun)",
      "num": "1841",
      "type": "metro",
      "isHub": true,
      "routes": [
        [
          16,
          6
        ],
        [
          17,
          20
        ],
        [
          18,
          10
        ],
        [
          19,
          11
        ],
        [
          22,
          10
        ],
        [
          23,
          10
        ],
        [
          24,
          22
        ],
        [
          25,
          23
        ]
      ]
    },
     {
      "commune": "PARIS-10EME",
      "lat": "48.8799654432891",
      "lignes": {
        "metro": [
          "4",
          "5"
        ]
      },
      "lng": "2.35470307836603",
      "nom": "Gare du Nord",
      "num": "1842",
      "type": "metro",
      "isHub": true,
      "routes": [
        [
          16,
          5
        ],
        [
          17,
          21
        ],
        [
          18,
          9
        ],
        [
          19,
          12
        ],
        [
          128,
          0
        ],
        [
          129,
          1
        ]
      ],
      "isAmbiguous": true
    },
     {
      "commune": "SAINT-OUEN",
      "lat": "48.9060316197727",
      "lignes": {
        "metro": [
          "13"
        ]
      },
      "lng": "2.33173327604333",
      "nom": "Garibaldi",
      "num": "1844",
      "type": "metro",
      "isHub": false,
      "routes": [
        [
          37,
          5
        ],
        [
          39,
          20
        ]
      ]
    },
    {
      "commune": "PARIS-08EME",
      "lat": "48.8719825731694",
      "lignes": {
        "metro": [
          "1"
        ]
      },
      "lng": "2.30046268343343",
      "nom": "George V",
      "num": "1846",
      "type": "metro",
      "isHub": false,
      "routes": [
        [
          8,
          17
        ],
        [
          9,
          7
        ]
      ]
    },
     {
      "commune": "PARIS-13EME",
      "lat": "48.8313647071449",
      "lignes": {
        "metro": [
          "6"
        ]
      },
      "lng": "2.34393889430969",
      "nom": "Glacière",
      "num": "1848",
      "type": "metro",
      "isHub": false,
      "routes": [
        [
          20,
          16
        ],
        [
          21,
          11
        ]
      ]
    },
    {
      "commune": "PARIS-10EME",
      "lat": "48.8696803933807",
      "lignes": {
        "metro": [
          "11"
        ]
      },
      "lng": "2.3712726500969",
      "nom": "Goncourt (HÃ´pital Saint-Louis)",
      "num": "1849",
      "type": "metro",
      "isHub": false,
      "routes": [
        [
          32,
          7
        ],
        [
          33,
          5
        ]
      ]
    },
     {
      "commune": "PUTEAUX",
      "lat": "48.8919344692345",
      "lignes": {
        "metro": [
          "1"
        ],
        "rer": [
          "A"
        ]
      },
      "lng": "2.23788279833084",
      "nom": "La Défense (Grande Arche)",
      "num": "1850",
      "type": "rer",
      "isHub": true,
      "routes": [
        [
          8,
          24
        ],
        [
          9,
          0
        ],
        [
          82,
          1
        ],
        [
          83,
          1
        ]
      ],
      "isAmbiguous": true
    },
     {
      "commune": "PARIS-18EME",
      "lat": "48.8924675161233",
      "lignes": {
        "metro": [
          "13"
        ]
      },
      "lng": "2.32722675495985",
      "nom": "Guy-MÃ´quet",
      "num": "1851",
      "type": "metro",
      "isHub": false,
      "routes": [
        [
          37,
          7
        ],
        [
          39,
          18
        ]
      ]
    },
     {
      "commune": "PARIS-09EME",
      "lat": "48.8733427700542",
      "lignes": {
        "metro": [
          "3",
          "9"
        ]
      },
      "lng": "2.3285077502868",
      "nom": "Havre-Caumartin",
      "num": "1852",
      "type": "metro",
      "isHub": true,
      "routes": [
        [
          12,
          10
        ],
        [
          13,
          14
        ],
        [
          28,
          18
        ],
        [
          29,
          18
        ],
        [
          66,
          0
        ],
        [
          67,
          2
        ]
      ]
    },
     {
      "commune": "PANTIN",
      "lat": "48.8913165639098",
      "lignes": {
        "metro": [
          "5"
        ]
      },
      "lng": "2.40319741378238",
      "nom": "Hoche",
      "num": "1853",
      "type": "metro",
      "isHub": false,
      "routes": [
        [
          18,
          3
        ],
        [
          19,
          18
        ]
      ]
    },
     {
      "commune": "PARIS-04EME",
      "lat": "48.8567695272423",
      "lignes": {
        "metro": [
          "11",
          "1"
        ]
      },
      "lng": "2.35149453979435",
      "nom": "HÃ´tel de Ville",
      "num": "1855",
      "type": "metro",
      "isHub": true,
      "routes": [
        [
          8,
          9
        ],
        [
          9,
          15
        ],
        [
          32,
          11
        ],
        [
          33,
          1
        ]
      ]
    },
     {
      "commune": "PARIS-07EME",
      "lat": "48.8616865404563",
      "lignes": {
        "metro": [
          "13",
          "8"
        ]
      },
      "lng": "2.31435704324728",
      "nom": "Invalides",
      "num": "1857",
      "type": "metro",
      "isHub": true,
      "routes": [
        [
          26,
          8
        ],
        [
          27,
          29
        ],
        [
          36,
          12
        ],
        [
          37,
          14
        ],
        [
          38,
          11
        ],
        [
          39,
          11
        ]
      ]
    },
     {
      "commune": "PARIS-16EME",
      "lat": "48.8644728974464",
      "lignes": {
        "metro": [
          "9"
        ]
      },
      "lng": "2.2937999591139",
      "nom": "Iéna",
      "num": "1858",
      "type": "metro",
      "isHub": false,
      "routes": [
        [
          28,
          12
        ],
        [
          29,
          24
        ]
      ]
    },
     {
      "commune": "PARIS-10EME",
      "lat": "48.8709749040173",
      "lignes": {
        "metro": [
          "5"
        ]
      },
      "lng": "2.36053788394075",
      "nom": "Jacques-Bonsergent",
      "num": "1859",
      "type": "metro",
      "isHub": false,
      "routes": [
        [
          18,
          11
        ],
        [
          19,
          10
        ]
      ]
    },
     {
      "commune": "PARIS-16EME",
      "lat": "48.8523396005309",
      "lignes": {
        "metro": [
          "9"
        ]
      },
      "lng": "2.26790681383725",
      "nom": "Jasmin",
      "num": "1860",
      "type": "metro",
      "isHub": false,
      "routes": [
        [
          28,
          7
        ],
        [
          29,
          29
        ]
      ]
    },
     {
      "commune": "PARIS-19EME",
      "lat": "48.8825437461168",
      "lignes": {
        "metro": [
          "2",
          "5",
          "7B"
        ]
      },
      "lng": "2.37023181919226",
      "nom": "Jaurès",
      "num": "1861",
      "type": "metro",
      "isHub": true,
      "routes": [
        [
          10,
          15
        ],
        [
          11,
          9
        ],
        [
          18,
          7
        ],
        [
          19,
          14
        ],
        [
          42,
          1
        ],
        [
          43,
          5
        ]
      ]
    },
     {
      "commune": "PARIS-15EME",
      "lat": "48.8461034637876",
      "lignes": {
        "metro": [
          "10"
        ]
      },
      "lng": "2.27845497841475",
      "nom": "Javel-André-Citroen",
      "num": "1862",
      "type": "metro",
      "isHub": false,
      "routes": [
        [
          30,
          5
        ],
        [
          31,
          14
        ]
      ]
    },
     {
      "commune": "PARIS-20EME",
      "lat": "48.8751674276782",
      "lignes": {
        "metro": [
          "11"
        ]
      },
      "lng": "2.38919309981893",
      "nom": "Jourdain",
      "num": "1864",
      "type": "metro",
      "isHub": false,
      "routes": [
        [
          32,
          4
        ],
        [
          33,
          8
        ]
      ]
    },
     {
      "commune": "PARIS-18EME",
      "lat": "48.8924519921638",
      "lignes": {
        "metro": [
          "12"
        ]
      },
      "lng": "2.34446469630622",
      "nom": "Jules Joffrin",
      "num": "1865",
      "type": "metro",
      "isHub": false,
      "routes": [
        [
          34,
          4
        ],
        [
          35,
          24
        ]
      ]
    },
     {
      "commune": "PARIS-05EME",
      "lat": "48.8458380895278",
      "lignes": {
        "metro": [
          "10",
          "7"
        ]
      },
      "lng": "2.35469159842714",
      "nom": "Jussieu",
      "num": "1866",
      "type": "metro",
      "isHub": true,
      "routes": [
        [
          22,
          22
        ],
        [
          23,
          22
        ],
        [
          24,
          10
        ],
        [
          25,
          11
        ],
        [
          30,
          18
        ],
        [
          31,
          1
        ]
      ]
    },
     {
      "commune": "PARIS-16EME",
      "lat": "48.8710948130145",
      "lignes": {
        "metro": [
          "6"
        ]
      },
      "lng": "2.29307915421584",
      "nom": "Kléber",
      "num": "1867",
      "type": "metro",
      "isHub": false,
      "routes": [
        [
          20,
          1
        ],
        [
          21,
          26
        ]
      ]
    },
    {
      "commune": "PARIS-10EME",
      "lat": "48.8839663987791",
      "lignes": {
        "metro": [
          "2"
        ]
      },
      "lng": "2.35849962591676",
      "nom": "La Chapelle",
      "num": "1868",
      "type": "metro",
      "isHub": false,
      "routes": [
        [
          10,
          13
        ],
        [
          11,
          11
        ]
      ]
    },
    {
      "commune": "LA COURNEUVE",
      "lat": "48.9209043594324",
      "lignes": {
        "metro": [
          "7"
        ]
      },
      "lng": "2.41045542691904",
      "nom": "La Courneuve-8-Mai-1945",
      "num": "1869",
      "type": "metro",
      "isHub": true,
      "routes": [
        [
          22,
          0
        ],
        [
          23,
          0
        ],
        [
          24,
          32
        ],
        [
          25,
          33
        ],
        [
          78,
          1
        ],
        [
          79,
          0
        ]
      ]
    },
     {
      "commune": "PARIS-17EME",
      "lat": "48.8873918956469",
      "lignes": {
        "metro": [
          "13"
        ]
      },
      "lng": "2.32603867708385",
      "nom": "La Fourche",
      "num": "1872",
      "type": "metro",
      "isHub": false,
      "routes": [
        [
          36,
          6
        ],
        [
          37,
          8
        ],
        [
          38,
          17
        ],
        [
          39,
          17
        ]
      ]
    },
     {
      "commune": "PARIS-15EME",
      "lat": "48.8491605024288",
      "lignes": {
        "metro": [
          "10",
          "6",
          "8"
        ]
      },
      "lng": "2.29794929910712",
      "nom": "La Motte-Picquet-Grenelle",
      "num": "1874",
      "type": "metro",
      "isHub": true,
      "routes": [
        [
          20,
          7
        ],
        [
          21,
          20
        ],
        [
          26,
          5
        ],
        [
          27,
          32
        ],
        [
          30,
          8
        ],
        [
          31,
          11
        ]
      ]
    },
    {
      "commune": "PARIS-16EME",
      "lat": "48.8579377398982",
      "lignes": {
        "metro": [
          "9"
        ]
      },
      "lng": "2.27411706697758",
      "nom": "La Muette",
      "num": "1876",
      "type": "metro",
      "isHub": false,
      "routes": [
        [
          28,
          9
        ],
        [
          29,
          27
        ]
      ]
    },
     {
      "commune": "PARIS-18EME",
      "lat": "48.8897560451806",
      "lignes": {
        "metro": [
          "12"
        ]
      },
      "lng": "2.33889013654466",
      "nom": "Lamarck-Caulaincourt",
      "num": "1879",
      "type": "metro",
      "isHub": false,
      "routes": [
        [
          34,
          5
        ],
        [
          35,
          23
        ]
      ]
    },
     {
      "commune": "PARIS-19EME",
      "lat": "48.8850422338428",
      "lignes": {
        "metro": [
          "5"
        ]
      },
      "lng": "2.3795955531979",
      "nom": "Laumière",
      "num": "1882",
      "type": "metro",
      "isHub": false,
      "routes": [
        [
          18,
          6
        ],
        [
          19,
          15
        ]
      ]
    },
     {
      "commune": "PARIS-08EME",
      "lat": "48.8661829956315",
      "lignes": {
        "metro": [
          "12",
          "1",
          "8"
        ]
      },
      "lng": "2.32329987859148",
      "nom": "Concorde",
      "num": "1885",
      "type": "metro",
      "isHub": true,
      "routes": [
        [
          8,
          14
        ],
        [
          9,
          10
        ],
        [
          26,
          9
        ],
        [
          27,
          28
        ],
        [
          34,
          13
        ],
        [
          35,
          15
        ]
      ]
    },
     {
      "commune": "PARIS-15EME",
      "lat": "48.8374696207371",
      "lignes": {
        "metro": [
          "12"
        ]
      },
      "lng": "2.29689958279762",
      "nom": "Convention",
      "num": "1887",
      "type": "metro",
      "isHub": false,
      "routes": [
        [
          34,
          25
        ],
        [
          35,
          3
        ]
      ]
    },
     {
      "commune": "PARIS-19EME",
      "lat": "48.8949061258374",
      "lignes": {
        "metro": [
          "7"
        ]
      },
      "lng": "2.38244550268222",
      "nom": "Corentin-Cariou",
      "num": "1888",
      "type": "metro",
      "isHub": false,
      "routes": [
        [
          22,
          4
        ],
        [
          23,
          4
        ],
        [
          24,
          28
        ],
        [
          25,
          29
        ]
      ]
    },
     {
      "commune": "ISSY-LES-MOULINEAUX",
      "lat": "48.8272434444069",
      "lignes": {
        "metro": [
          "12"
        ]
      },
      "lng": "2.27930670368976",
      "nom": "Corentin-Celton",
      "num": "1889",
      "type": "metro",
      "isHub": false,
      "routes": [
        [
          34,
          27
        ],
        [
          35,
          1
        ]
      ]
    },
     {
      "commune": "PARIS-13EME",
      "lat": "48.8296116848646",
      "lignes": {
        "metro": [
          "6"
        ]
      },
      "lng": "2.34943832730731",
      "nom": "Corvisart",
      "num": "1890",
      "type": "metro",
      "isHub": false,
      "routes": [
        [
          20,
          17
        ],
        [
          21,
          10
        ]
      ]
    },
     {
      "commune": "PARIS-08EME",
      "lat": "48.8792362487704",
      "lignes": {
        "metro": [
          "2"
        ]
      },
      "lng": "2.30360515293852",
      "nom": "Courcelles",
      "num": "1892",
      "type": "metro",
      "isHub": false,
      "routes": [
        [
          10,
          4
        ],
        [
          11,
          20
        ]
      ]
    },
     {
      "commune": "PARIS-11EME",
      "lat": "48.8689698757764",
      "lignes": {
        "metro": [
          "2"
        ]
      },
      "lng": "2.379868518699",
      "nom": "Couronnes",
      "num": "1893",
      "type": "metro",
      "isHub": false,
      "routes": [
        [
          10,
          18
        ],
        [
          11,
          6
        ]
      ]
    },
     {
      "commune": "PARIS-19EME",
      "lat": "48.8906811628606",
      "lignes": {
        "metro": [
          "7"
        ]
      },
      "lng": "2.37681528947191",
      "nom": "Crimée",
      "num": "1894",
      "type": "metro",
      "isHub": false,
      "routes": [
        [
          22,
          5
        ],
        [
          23,
          5
        ],
        [
          24,
          27
        ],
        [
          25,
          28
        ]
      ]
    },
     {
      "commune": "MONTREUIL",
      "lat": "48.8579269412394",
      "lignes": {
        "metro": [
          "9"
        ]
      },
      "lng": "2.43609830308268",
      "nom": "Croix-de-Chavaux (Jacques Duclos)",
      "num": "1896",
      "type": "metro",
      "isHub": false,
      "routes": [
        [
          28,
          35
        ],
        [
          29,
          1
        ]
      ]
    },
     {
      "commune": "CRETEIL",
      "lat": "48.7964623870188",
      "lignes": {
        "metro": [
          "8"
        ]
      },
      "lng": "2.44906187102647",
      "nom": "Créteil-L'Echat (HÃ´pital Henri Mondor)",
      "num": "1897",
      "type": "metro",
      "isHub": false,
      "routes": [
        [
          26,
          34
        ],
        [
          27,
          3
        ]
      ]
    },
     {
      "commune": "CRETEIL",
      "lat": "48.7797484034104",
      "lignes": {
        "metro": [
          "8"
        ]
      },
      "lng": "2.45914426746537",
      "nom": "Créteil-Préfecture (HÃ´tel de Ville)",
      "num": "1898",
      "type": "metro",
      "isHub": false,
      "routes": [
        [
          26,
          36
        ],
        [
          27,
          1
        ]
      ]
    },
     {
      "commune": "CRETEIL",
      "lat": "48.7893506910917",
      "lignes": {
        "metro": [
          "8"
        ]
      },
      "lng": "2.45144739751129",
      "nom": "Créteil-Université",
      "num": "1899",
      "type": "metro",
      "isHub": false,
      "routes": [
        [
          26,
          35
        ],
        [
          27,
          2
        ]
      ]
    },
     {
      "commune": "PARIS-19EME",
      "lat": "48.8820231366362",
      "lignes": {
        "metro": [
          "7B"
        ]
      },
      "lng": "2.39270205235331",
      "nom": "Danube",
      "num": "1900",
      "type": "metro",
      "isHub": false,
      "routes": [
        [
          43,
          1
        ]
      ]
    },
     {
      "commune": "PARIS-12EME",
      "lat": "48.8393629125482",
      "lignes": {
        "metro": [
          "6",
          "8"
        ]
      },
      "lng": "2.39584590805199",
      "nom": "Daumesnil (Félix Eboué)",
      "num": "1901",
      "type": "metro",
      "isHub": true,
      "routes": [
        [
          20,
          24
        ],
        [
          21,
          3
        ],
        [
          26,
          25
        ],
        [
          27,
          12
        ]
      ]
    },
    {
      "commune": "PARIS-14EME",
      "lat": "48.8335919035577",
      "lignes": {
        "metro": [
          "4",
          "6"
        ]
      },
      "lng": "2.33189346001924",
      "nom": "Denfert-Rochereau",
      "num": "1902",
      "type": "metro",
      "isHub": true,
      "routes": [
        [
          16,
          22
        ],
        [
          17,
          4
        ],
        [
          20,
          14
        ],
        [
          21,
          13
        ],
        [
          124,
          0
        ],
        [
          125,
          1
        ]
      ],
      "isAmbiguous": true
    },
     {
      "commune": "PARIS-12EME",
      "lat": "48.8389122332307",
      "lignes": {
        "metro": [
          "6"
        ]
      },
      "lng": "2.38895257216093",
      "nom": "Dugommier",
      "num": "1906",
      "type": "metro",
      "isHub": false,
      "routes": [
        [
          20,
          23
        ],
        [
          21,
          4
        ]
      ]
    },
     {
      "commune": "PARIS-15EME",
      "lat": "48.8508056365633",
      "lignes": {
        "metro": [
          "6"
        ]
      },
      "lng": "2.29276958714394",
      "nom": "Dupleix",
      "num": "1907",
      "type": "metro",
      "isHub": false,
      "routes": [
        [
          20,
          6
        ],
        [
          21,
          21
        ]
      ]
    },
     {
      "commune": "PARIS-07EME",
      "lat": "48.8467835319339",
      "lignes": {
        "metro": [
          "10",
          "13"
        ]
      },
      "lng": "2.31672285703746",
      "nom": "Duroc",
      "num": "1908",
      "type": "metro",
      "isHub": true,
      "routes": [
        [
          30,
          10
        ],
        [
          31,
          9
        ],
        [
          36,
          15
        ],
        [
          37,
          17
        ],
        [
          38,
          8
        ],
        [
          39,
          8
        ]
      ]
    },
     {
      "commune": "PARIS-07EME",
      "lat": "48.8545185491092",
      "lignes": {
        "metro": [
          "8"
        ]
      },
      "lng": "2.30554381620113",
      "nom": "Ecole Militaire",
      "num": "1909",
      "type": "metro",
      "isHub": false,
      "routes": [
        [
          26,
          6
        ],
        [
          27,
          31
        ]
      ]
    },
     {
      "commune": "PARIS-14EME",
      "lat": "48.8403339877984",
      "lignes": {
        "metro": [
          "6"
        ]
      },
      "lng": "2.3261713916465",
      "nom": "Edgar-Quinet",
      "num": "1910",
      "type": "metro",
      "isHub": false,
      "routes": [
        [
          20,
          12
        ],
        [
          21,
          15
        ]
      ]
    },
     {
      "commune": "PARIS-16EME",
      "lat": "48.8471813581933",
      "lignes": {
        "metro": [
          "10"
        ]
      },
      "lng": "2.26890098784783",
      "nom": "Eglise d'Auteuil",
      "num": "1911",
      "type": "metro",
      "isHub": false,
      "routes": [
        [
          31,
          15
        ]
      ]
    },
     {
      "commune": "PANTIN",
      "lat": "48.893113981741",
      "lignes": {
        "metro": [
          "5"
        ]
      },
      "lng": "2.41328568033304",
      "nom": "Eglise de Pantin",
      "num": "1912",
      "type": "metro",
      "isHub": false,
      "routes": [
        [
          18,
          2
        ],
        [
          19,
          19
        ]
      ]
    },
     {
      "commune": "PUTEAUX",
      "lat": "48.887843122138",
      "lignes": {
        "metro": [
          "1"
        ]
      },
      "lng": "2.25044232471862",
      "nom": "Esplanade de la Défense",
      "num": "1913",
      "type": "metro",
      "isHub": false,
      "routes": [
        [
          8,
          23
        ],
        [
          9,
          1
        ]
      ]
    },
     {
      "commune": "PARIS-01ER",
      "lat": "48.8634946589771",
      "lignes": {
        "metro": [
          "4"
        ]
      },
      "lng": "2.34866984004444",
      "nom": "Etienne Marcel",
      "num": "1914",
      "type": "metro",
      "isHub": false,
      "routes": [
        [
          16,
          10
        ],
        [
          17,
          16
        ]
      ]
    },
     {
      "commune": "PARIS-08EME",
      "lat": "48.8787098768874",
      "lignes": {
        "metro": [
          "3"
        ]
      },
      "lng": "2.32282484061213",
      "nom": "Europe",
      "num": "1915",
      "type": "metro",
      "isHub": false,
      "routes": [
        [
          12,
          8
        ],
        [
          13,
          16
        ]
      ]
    },
     {
      "commune": "PARIS-16EME",
      "lat": "48.8424273379119",
      "lignes": {
        "metro": [
          "9"
        ]
      },
      "lng": "2.25973661579821",
      "nom": "Exelmans",
      "num": "1916",
      "type": "metro",
      "isHub": false,
      "routes": [
        [
          28,
          4
        ],
        [
          29,
          32
        ]
      ]
    },
     {
      "commune": "PARIS-11EME",
      "lat": "48.8502384503521",
      "lignes": {
        "metro": [
          "8"
        ]
      },
      "lng": "2.38427458098634",
      "nom": "Faidherbe-Chaligny",
      "num": "1917",
      "type": "metro",
      "isHub": false,
      "routes": [
        [
          26,
          22
        ],
        [
          27,
          15
        ]
      ]
    },
     {
      "commune": "PARIS-15EME",
      "lat": "48.844637894177",
      "lignes": {
        "metro": [
          "12"
        ]
      },
      "lng": "2.31749646866691",
      "nom": "Falguière",
      "num": "1918",
      "type": "metro",
      "isHub": false,
      "routes": [
        [
          34,
          21
        ],
        [
          35,
          7
        ]
      ]
    },
     {
      "commune": "PARIS-03EME",
      "lat": "48.8633028923386",
      "lignes": {
        "metro": [
          "8"
        ]
      },
      "lng": "2.36645313804373",
      "nom": "Filles du Calvaire",
      "num": "1919",
      "type": "metro",
      "isHub": false,
      "routes": [
        [
          26,
          17
        ],
        [
          27,
          20
        ]
      ]
    },
     {
      "commune": "AUBERVILLIERS",
      "lat": "48.9146921997335",
      "lignes": {
        "metro": [
          "7"
        ]
      },
      "lng": "2.40417710143886",
      "nom": "Fort d'Aubervilliers",
      "num": "1923",
      "type": "metro",
      "isHub": false,
      "routes": [
        [
          22,
          1
        ],
        [
          23,
          1
        ],
        [
          24,
          31
        ],
        [
          25,
          32
        ]
      ]
    },
     {
      "commune": "PARIS-08EME",
      "lat": "48.8693052286485",
      "lignes": {
        "metro": [
          "1",
          "9"
        ]
      },
      "lng": "2.30830876451203",
      "nom": "Franklin-Roosevelt",
      "num": "1924",
      "type": "metro",
      "isHub": true,
      "routes": [
        [
          8,
          16
        ],
        [
          9,
          8
        ],
        [
          28,
          14
        ],
        [
          29,
          22
        ]
      ]
    },
     {
      "commune": "PARIS-15EME",
      "lat": "48.8429772288922",
      "lignes": {
        "metro": [
          "8"
        ]
      },
      "lng": "2.29199788779218",
      "nom": "Félix Faure",
      "num": "1925",
      "type": "metro",
      "isHub": false,
      "routes": [
        [
          26,
          3
        ],
        [
          27,
          34
        ]
      ]
    },
     {
      "commune": "PARIS-14EME",
      "lat": "48.8384911503461",
      "lignes": {
        "metro": [
          "13"
        ]
      },